[{"type": "FeatureCollection", "features": [{"type": "Feature", "properties": {"name": "ITUZAINGO Y FLORENTINO AMEGHINO", "styleUrl": "#msn_target10"}, "geometry": {"type": "Point", "coordinates": [-60.546507371144, -31.7303499479319, 0.0]}}, {"type": "Feature", "properties": {"name": "PADRE BARTOLOME GRELLA 1045", "styleUrl": "#msn_target29"}, "geometry": {"type": "Point", "coordinates": [-60.50869606868153, -31.74067152009574, 0.0]}}, {"type": "Feature", "properties": {"name": "LUIS PALMA Y CALLE 1011", "styleUrl": "#msn_target19"}, "geometry": {"type": "Point", "coordinates": [-60.54963471972301, -31.74523917672573, 0.0]}}, {"type": "Feature", "properties": {"name": "LUIS PALMA Y LOS CHANAS", "styleUrl": "#msn_target19"}, "geometry": {"type": "Point", "coordinates": [-60.5543769, -31.7445271, 0.0]}}, {"type": "Feature", "properties": {"name": "GUTIERREZ Y HILARIO DE LA QUINTANA", "styleUrl": "#msn_target39"}, "geometry": {"type": "Point", "coordinates": [-60.5378239903219, -31.74458912586202, 0.0]}}, {"type": "Feature", "properties": {"name": "GRAL ALVARADO Y TTE CORONEL PALMA", "styleUrl": "#msn_target60"}, "geometry": {"type": "Point", "coordinates": [-60.53441418185264, -31.75015975739968, 0.0]}}, {"type": "Feature", "properties": {"name": "GRAL SAROBE Y GRAL GERONIMO ESPEJO", "styleUrl": "#msn_target44"}, "geometry": {"type": "Point", "coordinates": [-60.5333613, -31.7597148, 0.0]}}, {"type": "Feature", "properties": {"name": "JUAN BAEZ Y GRAL GERONIMO ESPEJO", "styleUrl": "#msn_target14"}, "geometry": {"type": "Point", "coordinates": [-60.5355069, -31.7694516, 0.0]}}, {"type": "Feature", "properties": {"name": "JUAN BAEZ Y MARIA LONDERO DE GRECA", "styleUrl": "#msn_target54"}, "geometry": {"type": "Point", "coordinates": [-60.52884052187405, -31.77049268380545, 0.0]}}, {"type": "Feature", "properties": {"name": "AVDA JORGE NEWBERY Y VICTOR CAMERANO", "styleUrl": "#msn_target32"}, "geometry": {"type": "Point", "coordinates": [-60.51938201351205, -31.77198207473594, 0.0]}}, {"type": "Feature", "properties": {"name": "MIGUEL DAVID Y DIVISION LOS ANDES", "styleUrl": "#msn_target36"}, "geometry": {"type": "Point", "coordinates": [-60.51733295365265, -31.76742131070672, 0.0]}}, {"type": "Feature", "properties": {"name": "MIGUEL DAVID Y JUAN GARRIGO", "styleUrl": "#msn_target36"}, "geometry": {"type": "Point", "coordinates": [-60.50604260672621, -31.76913047351185, 0.0]}}, {"type": "Feature", "properties": {"name": "ALEJANDRO CARBO 1200", "styleUrl": "#msn_target59"}, "geometry": {"type": "Point", "coordinates": [-60.49732030477951, -31.76035520465493, 0.0]}}, {"type": "Feature", "properties": {"name": "AVDA DON BOSCO 542", "styleUrl": "#msn_target00"}, "geometry": {"type": "Point", "coordinates": [-60.5084088563239, -31.73418547072153, 0.0]}}, {"type": "Feature", "properties": {"name": "ALAMEDA DE LA FEDERACION Y TUCUMAN", "styleUrl": "#msn_target58"}, "geometry": {"type": "Point", "coordinates": [-60.53264836001294, -31.72395663429428, 0.0]}}, {"type": "Feature", "properties": {"name": "MEXICO Y PANAMA", "styleUrl": "#msn_target48"}, "geometry": {"type": "Point", "coordinates": [-60.53748751537233, -31.72428493504205, 0.0]}}, {"type": "Feature", "properties": {"name": "FLORENTINO AMEGHINO 110", "styleUrl": "#msn_target10"}, "geometry": {"type": "Point", "coordinates": [-60.5430595070514, -31.72908966269432, 0.0]}}]}]