[{"type": "FeatureCollection", "features": [{"type": "Feature", "properties": {"name": "BVARD BASAVILBASO Y AVDA SAN MARTIN", "styleUrl": "#msn_target3"}, "geometry": {"type": "Point", "coordinates": [-60.44271442467301, -31.77936687577223, 0.0]}}, {"type": "Feature", "properties": {"name": "LUIS PASTEUR Y DR ANTONIO MEDINA", "styleUrl": "#msn_target3"}, "geometry": {"type": "Point", "coordinates": [-60.52224757023065, -31.74965852854126, 0.0]}}, {"type": "Feature", "properties": {"name": "AVDA SAN MARTIN E/RENE FAVALORO Y MORENO", "styleUrl": "#msn_target3"}, "geometry": {"type": "Point", "coordinates": [-60.41476890831787, -31.76225203972869, 0.0]}}, {"type": "Feature", "properties": {"name": "PEDRO ARANGUREN Y ANTONIO SALELLAS", "styleUrl": "#msn_target1"}, "geometry": {"type": "Point", "coordinates": [-60.4584838, -31.7685879, 0.0]}}, {"type": "Feature", "properties": {"name": "AVDA GUIDO MARIZZA Y LAURENCENA", "styleUrl": "#msn_target3"}, "geometry": {"type": "Point", "coordinates": [-60.43699871311405, -31.78759736563151, 0.0]}}, {"type": "Feature", "properties": {"name": "AVDA PARANA Y AVDA URUGUAY", "styleUrl": "#msn_target3"}, "geometry": {"type": "Point", "coordinates": [-60.41956822829555, -31.77297542512459, 0.0]}}, {"type": "Feature", "properties": {"name": "CONVENCION CONSTITUYENTES Y MIGUEL YAÑES MARTIN", "styleUrl": "#msn_target3"}, "geometry": {"type": "Point", "coordinates": [-60.41159, -31.758931, 0.0]}}, {"type": "Feature", "properties": {"name": "GDOR LOPEZ JORDAN Y FRATERNIDAD", "styleUrl": "#msn_target3"}, "geometry": {"type": "Point", "coordinates": [-60.48057807443875, -31.73350019433106, 0.0]}}, {"type": "Feature", "properties": {"name": "AVDA DON BOSCO Y GDOR LOPEZ JORDAN", "styleUrl": "#msn_target3"}, "geometry": {"type": "Point", "coordinates": [-60.48161663204618, -31.73828245753761, 0.0]}}, {"type": "Feature", "properties": {"name": "AVDA LAURENCENA Y LINIERS", "styleUrl": "#msn_target3"}, "geometry": {"type": "Point", "coordinates": [-60.51750495907823, -31.7216426219736, 0.0]}}, {"type": "Feature", "properties": {"name": "AVDA LAURENCENA Y MARTIN MIGUEL DE GUEMES", "styleUrl": "#msn_target3"}, "geometry": {"type": "Point", "coordinates": [-60.52019635060327, -31.72050480789424, 0.0]}}, {"type": "Feature", "properties": {"name": "LINIERS Y MARTIN MIGUEL DE GUEMES", "styleUrl": "#msn_target3"}, "geometry": {"type": "Point", "coordinates": [-60.51988802975378, -31.71967012562954, 0.0]}}, {"type": "Feature", "properties": {"name": "LINIERS Y DIP SILVANO SANTENDER", "styleUrl": "#msn_target3"}, "geometry": {"type": "Point", "coordinates": [-60.52119664466798, -31.71945948225384, 0.0]}}, {"type": "Feature", "properties": {"name": "NEUQUEN Y SIMON BOLIVAR", "styleUrl": "#msn_target3"}, "geometry": {"type": "Point", "coordinates": [-60.51688707725244, -31.72444917649842, 0.0]}}, {"type": "Feature", "properties": {"name": "BVARD MORENO Y SIMON BOLIVAR", "styleUrl": "#msn_target3"}, "geometry": {"type": "Point", "coordinates": [-60.51748576897408, -31.72554914732643, 0.0]}}, {"type": "Feature", "properties": {"name": "ARTURO TOSCANINI Y FRANCISCO SOLER", "styleUrl": "#msn_target3"}, "geometry": {"type": "Point", "coordinates": [-60.51184459334248, -31.72712894625066, 0.0]}}, {"type": "Feature", "properties": {"name": "PADRE CORONA Y AYACUCHO", "styleUrl": "#msn_target3"}, "geometry": {"type": "Point", "coordinates": [-60.50339213823503, -31.73196739751142, 0.0]}}, {"type": "Feature", "properties": {"name": "PADRE CORONA Y BATALLA DE SUIPACHA", "styleUrl": "#msn_target3"}, "geometry": {"type": "Point", "coordinates": [-60.50663031491668, -31.731461827946, 0.0]}}, {"type": "Feature", "properties": {"name": "TACUARI Y LAS HERAS", "styleUrl": "#msn_target3"}, "geometry": {"type": "Point", "coordinates": [-60.5079789022169, -31.72995636552094, 0.0]}}, {"type": "Feature", "properties": {"name": "CESAR PEREZ COLMAN Y HERNANDE SABA", "styleUrl": "#msn_target3"}, "geometry": {"type": "Point", "coordinates": [-60.50669998288718, -31.72685665336354, 0.0]}}, {"type": "Feature", "properties": {"name": "AVDA DON BOSCO Y SOSA LOYOLA", "styleUrl": "#msn_target3"}, "geometry": {"type": "Point", "coordinates": [-60.4952476420034, -31.73616675771547, 0.0]}}, {"type": "Feature", "properties": {"name": "MIGUEL AZCUENAGA Y DE LA TORRE Y VERA", "styleUrl": "#msn_target3"}, "geometry": {"type": "Point", "coordinates": [-60.52216924389926, -31.72249750700183, 0.0]}}, {"type": "Feature", "properties": {"name": "AVDA DON BOSCO Y MAGALLANES", "styleUrl": "#msn_target3"}, "geometry": {"type": "Point", "coordinates": [-60.49417249902034, -31.73633254701886, 0.0]}}, {"type": "Feature", "properties": {"name": "DEL FALCON Y DEL RECADO", "styleUrl": "#msn_target3"}, "geometry": {"type": "Point", "coordinates": [-60.45382172801879, -31.75998065289112, 0.0]}}, {"type": "Feature", "properties": {"name": "ALMAFUERTE Y DEL RECADO", "styleUrl": "#msn_target3"}, "geometry": {"type": "Point", "coordinates": [-60.45439252897456, -31.7625595981034, 0.0]}}, {"type": "Feature", "properties": {"name": "ALMAFUERTE Y ARQ WALTER GRAND", "styleUrl": "#msn_target3"}, "geometry": {"type": "Point", "coordinates": [-60.44427789461668, -31.76428651778286, 0.0]}}, {"type": "Feature", "properties": {"name": "ALMAFUERTE Y ANTONIO SALELLAS", "styleUrl": "#msn_target3"}, "geometry": {"type": "Point", "coordinates": [-60.45713502492327, -31.76215269064382, 0.0]}}, {"type": "Feature", "properties": {"name": "AVDA ALMAFUERTE Y ANTONIO BONELL", "styleUrl": "#msn_target3"}, "geometry": {"type": "Point", "coordinates": [-60.46305767867481, -31.76136291650264, 0.0]}}, {"type": "Feature", "properties": {"name": "FRANCIA Y JORGE LUIS BORGES", "styleUrl": "#msn_target3"}, "geometry": {"type": "Point", "coordinates": [-60.46759294490083, -31.75563409577656, 0.0]}}, {"type": "Feature", "properties": {"name": "PLAZA DE LAS COLECTIVIDADES", "styleUrl": "#msn_target4"}, "geometry": {"type": "Point", "coordinates": [-60.5230404988553, -31.7194073409173, 0.0]}}, {"type": "Feature", "properties": {"name": "AVDA ALMAFUERTE Y JORGE LUIS BORGES", "styleUrl": "#msn_target10"}, "geometry": {"type": "Point", "coordinates": [-60.46859095052471, -31.76053662933858, 0.0]}}, {"type": "Feature", "properties": {"name": "PEDRO ARANGUREN PLANTA REGULADORA", "styleUrl": "#msn_target10"}, "geometry": {"type": "Point", "coordinates": [-60.46368645252001, -31.76785744219245, 0.0]}}, {"type": "Feature", "properties": {"name": "HERNANDARIAS Y SALELLAS", "styleUrl": "#msn_target10"}, "geometry": {"type": "Point", "coordinates": [-60.45828062663282, -31.76744843171609, 0.0]}}, {"type": "Feature", "properties": {"name": "AVDA DON BOSCO Y RONDEAU", "styleUrl": "#msn_target10"}, "geometry": {"type": "Point", "coordinates": [-60.4988603746283, -31.73559407593058, 0.0]}}, {"type": "Feature", "properties": {"name": "AVDA DON BOSCO Y AVDA LOS CONSTITUYENTES", "styleUrl": "#msn_target10"}, "geometry": {"type": "Point", "coordinates": [-60.50290497360991, -31.73493365135152, 0.0]}}, {"type": "Feature", "properties": {"name": "MOSEÑOR JOSE DOBLER Y MAGALLANES", "styleUrl": "#msn_target10"}, "geometry": {"type": "Point", "coordinates": [-60.49365953242268, -31.73389711075623, 0.0]}}, {"type": "Feature", "properties": {"name": "FRATERNIDAD Y CANONINO MANUEL BAÑOS", "styleUrl": "#msn_target10"}, "geometry": {"type": "Point", "coordinates": [-60.49516525699871, -31.73116341645827, 0.0]}}, {"type": "Feature", "properties": {"name": "HERMANA MUSCATINE Y RONDEAU", "styleUrl": "#msn_target10"}, "geometry": {"type": "Point", "coordinates": [-60.49754726310272, -31.72964857646458, 0.0]}}, {"type": "Feature", "properties": {"name": "AVDA CIRCUNVALACION JOSE HERNANDEZ Y RONDEAU", "styleUrl": "#msn_target10"}, "geometry": {"type": "Point", "coordinates": [-60.49692095665483, -31.72723029464072, 0.0]}}, {"type": "Feature", "properties": {"name": "JUAN AMBROSETTI Y RONDEAU", "styleUrl": "#msn_target10"}, "geometry": {"type": "Point", "coordinates": [-60.49609088920896, -31.72339501323589, 0.0]}}, {"type": "Feature", "properties": {"name": "CALLE ING JOZAMI Y RONDEAU", "styleUrl": "#msn_target10"}, "geometry": {"type": "Point", "coordinates": [-60.49342222095318, -31.71157252895533, 0.0]}}, {"type": "Feature", "properties": {"name": "ALFREDO DU GRATTY Y AVDA FRANCISCO RAMIREZ", "styleUrl": "#msn_target10"}, "geometry": {"type": "Point", "coordinates": [-60.5129777411867, -31.71832789306528, 0.0]}}, {"type": "Feature", "properties": {"name": "AUGUSTO BRAVARD Y FRANCISCO SOLER", "styleUrl": "#msn_target10"}, "geometry": {"type": "Point", "coordinates": [-60.51001712800001, -31.7175693366466, 0.0]}}, {"type": "Feature", "properties": {"name": "AUGUSTO BRAVARD Y PABLO MANTEGAZA", "styleUrl": "#msn_target10"}, "geometry": {"type": "Point", "coordinates": [-60.50824389732372, -31.71684280535748, 0.0]}}, {"type": "Feature", "properties": {"name": "AVDA DON BOSCO Y AVDA CIRCUNVALACION JOSE HERNANDEZ ESTE", "styleUrl": "#msn_target10"}, "geometry": {"type": "Point", "coordinates": [-60.48364742485271, -31.73797941801524, 0.0]}}, {"type": "Feature", "properties": {"name": "AVDA DON BOSCO Y AVDA CIRCUNVALACION JOSE HERNANDEZ OESTE", "styleUrl": "#msn_target10"}, "geometry": {"type": "Point", "coordinates": [-60.48432499548232, -31.73787427157219, 0.0]}}, {"type": "Feature", "properties": {"name": "AVDA DON BOSCO Y CALLE 1679", "styleUrl": "#msn_target10"}, "geometry": {"type": "Point", "coordinates": [-60.47991122120565, -31.73853897087807, 0.0]}}, {"type": "Feature", "properties": {"name": "AVDA DON BOSCO Y MOSEÑOR ABEL BAZAN Y BUSTOS", "styleUrl": "#msn_target10"}, "geometry": {"type": "Point", "coordinates": [-60.47581264433688, -31.73921891358156, 0.0]}}, {"type": "Feature", "properties": {"name": "AVDA DON BOSCO Y PEDRO LONDERO", "styleUrl": "#msn_target10"}, "geometry": {"type": "Point", "coordinates": [-60.45883431133507, -31.74184757729704, 0.0]}}, {"type": "Feature", "properties": {"name": "FRATERNIDAD Y PEDRO LONDERO", "styleUrl": "#msn_target10"}, "geometry": {"type": "Point", "coordinates": [-60.45784333401448, -31.73703143449964, 0.0]}}, {"type": "Feature", "properties": {"name": "FRANCIA Y DEL RECADO", "styleUrl": "#msn_target10"}, "geometry": {"type": "Point", "coordinates": [-60.45336231292298, -31.75785402505396, 0.0]}}, {"type": "Feature", "properties": {"name": "DEL MATE Y DE LA YERRA", "styleUrl": "#msn_target"}, "geometry": {"type": "Point", "coordinates": [-60.45242379772154, -31.75649228841038, 0.0]}}, {"type": "Feature", "properties": {"name": "VALENTIN TORRA Y ANTONIO SALELLAS", "styleUrl": "#msn_target10"}, "geometry": {"type": "Point", "coordinates": [-60.45869867035535, -31.76959398964401, 0.0]}}, {"type": "Feature", "properties": {"name": "ROQUE SAENZ PEÑA Y ANTONIO SALELLAS", "styleUrl": "#msn_target10"}, "geometry": {"type": "Point", "coordinates": [-60.4597576832847, -31.77443957287743, 0.0]}}, {"type": "Feature", "properties": {"name": "AVDA JORGE NEWBERY Y JOSE UBACH Y ROCA", "styleUrl": "#msn_target10"}, "geometry": {"type": "Point", "coordinates": [-60.45554460141012, -31.78253826946131, 0.0]}}, {"type": "Feature", "properties": {"name": "AVDA JORGE NEWBERY BOMBEROS", "styleUrl": "#msn_target10"}, "geometry": {"type": "Point", "coordinates": [-60.44715881516381, -31.78382059180413, 0.0]}}, {"type": "Feature", "properties": {"name": "AVDA FEDERACION Y AVDA SAN MARTIN", "styleUrl": "#msn_target10"}, "geometry": {"type": "Point", "coordinates": [-60.44476717959118, -31.78906027492606, 0.0]}}, {"type": "Feature", "properties": {"name": "2 DE ABRIL Y BVARD HERNANDEZ", "styleUrl": "#msn_target10"}, "geometry": {"type": "Point", "coordinates": [-60.42823982682871, -31.77998811552425, 0.0]}}, {"type": "Feature", "properties": {"name": "AVDA PARANA Y BVARD HERNANDEZ", "styleUrl": "#msn_target10"}, "geometry": {"type": "Point", "coordinates": [-60.42645610722682, -31.7719716239178, 0.0]}}, {"type": "Feature", "properties": {"name": "AVDA PARANA Y NEUQUEN", "styleUrl": "#msn_target10"}, "geometry": {"type": "Point", "coordinates": [-60.41829655434199, -31.77319181538232, 0.0]}}, {"type": "Feature", "properties": {"name": "RUTA 12 Y CORDOBA", "styleUrl": "#msn_target10"}, "geometry": {"type": "Point", "coordinates": [-60.41613475140273, -31.76899214853372, 0.0]}}, {"type": "Feature", "properties": {"name": "GRAL MANUEL BELGRANO Y AVDA SAN MARTIN", "styleUrl": "#msn_target10"}, "geometry": {"type": "Point", "coordinates": [-60.41597557224667, -31.76822806494783, 0.0]}}, {"type": "Feature", "properties": {"name": "GRAL MANUEL BELGRANO Y MIGUEL YAÑEZ MARTIN", "styleUrl": "#msn_target10"}, "geometry": {"type": "Point", "coordinates": [-60.41366067144241, -31.76873898569584, 0.0]}}, {"type": "Feature", "properties": {"name": "RENE FAVALORO Y GRAL RAMIREZ", "styleUrl": "#msn_target10"}, "geometry": {"type": "Point", "coordinates": [-60.40709572115345, -31.76267913593427, 0.0]}}, {"type": "Feature", "properties": {"name": "CONVENCION CONSTIRUYENTES Y GRAL RAMIREZ", "styleUrl": "#msn_target10"}, "geometry": {"type": "Point", "coordinates": [-60.40584047668128, -31.76015932126719, 0.0]}}, {"type": "Feature", "properties": {"name": "SGTO CABRAL Y GRAL RAMIREZ", "styleUrl": "#msn_target10"}, "geometry": {"type": "Point", "coordinates": [-60.40534344449413, -31.75898032184145, 0.0]}}, {"type": "Feature", "properties": {"name": "CONVENCION CONSTITUYENTES Y DORREGO", "styleUrl": "#msn_target10"}, "geometry": {"type": "Point", "coordinates": [-60.41635179921391, -31.75848425681968, 0.0]}}, {"type": "Feature", "properties": {"name": "TTE GIMENEZ Y AVDA SAN MARTIN", "styleUrl": "#msn_target10"}, "geometry": {"type": "Point", "coordinates": [-60.41501947252552, -31.76370111296272, 0.0]}}, {"type": "Feature", "properties": {"name": "RUTA 12 Y DORREGO", "styleUrl": "#msn_target10"}, "geometry": {"type": "Point", "coordinates": [-60.41849610954459, -31.76823517764487, 0.0]}}, {"type": "Feature", "properties": {"name": "ALMAFUERTE Y RUTA 12", "styleUrl": "#msn_target10"}, "geometry": {"type": "Point", "coordinates": [-60.47734417455711, -31.75918692764866, 0.0]}}, {"type": "Feature", "properties": {"name": "ALMAFUERTE Y SALVADOR CAPUTTO", "styleUrl": "#msn_target10"}, "geometry": {"type": "Point", "coordinates": [-60.48015263749428, -31.75877536553324, 0.0]}}, {"type": "Feature", "properties": {"name": "ALMAFUERTE Y CHARRUA", "styleUrl": "#msn_target10"}, "geometry": {"type": "Point", "coordinates": [-60.48138052265787, -31.75857630190922, 0.0]}}, {"type": "Feature", "properties": {"name": "ALMAFUETE Y CARLOS MASTRONARDI", "styleUrl": "#msn_target10"}, "geometry": {"type": "Point", "coordinates": [-60.48284852240505, -31.75832850977581, 0.0]}}, {"type": "Feature", "properties": {"name": "HERNANDARIAS Y OVIDIO LAGOS", "styleUrl": "#msn_target10"}, "geometry": {"type": "Point", "coordinates": [-60.48962416994776, -31.76235374225662, 0.0]}}, {"type": "Feature", "properties": {"name": "AVDA JORGE NEWBERY Y AVDA PEDRO ZANNI", "styleUrl": "#msn_target10"}, "geometry": {"type": "Point", "coordinates": [-60.50128200042482, -31.77551433874562, 0.0]}}, {"type": "Feature", "properties": {"name": "AVDAJORGE NEWBERY Y JOSE AREVALO", "styleUrl": "#msn_target10"}, "geometry": {"type": "Point", "coordinates": [-60.49829315752319, -31.77594332312208, 0.0]}}, {"type": "Feature", "properties": {"name": "AVDA JORGE NEWBERY Y GDO ENRIQUE MIHURA", "styleUrl": "#msn_target10"}, "geometry": {"type": "Point", "coordinates": [-60.48977012525424, -31.77739137831445, 0.0]}}, {"type": "Feature", "properties": {"name": "AVDA JORGE NEWBERY Y SALVADOR CAPUTTO", "styleUrl": "#msn_target10"}, "geometry": {"type": "Point", "coordinates": [-60.48418113617017, -31.77824761923211, 0.0]}}, {"type": "Feature", "properties": {"name": "MIGUEL DAVID Y SALVADOR CAPUTTO", "styleUrl": "#msn_target10"}, "geometry": {"type": "Point", "coordinates": [-60.4830336250404, -31.77342790977134, 0.0]}}, {"type": "Feature", "properties": {"name": "SALVADOR CAPUTTO Y DE LA CHAMARRITA", "styleUrl": "#msn_target10"}, "geometry": {"type": "Point", "coordinates": [-60.48239977346157, -31.77025492572878, 0.0]}}, {"type": "Feature", "properties": {"name": "MIGUEL DAVID Y MARIO R. LUNA", "styleUrl": "#msn_target10"}, "geometry": {"type": "Point", "coordinates": [-60.47928311068479, -31.77399185843402, 0.0]}}, {"type": "Feature", "properties": {"name": "CALLE 802 Y ANTONIO BONELL", "styleUrl": "#msn_target10"}, "geometry": {"type": "Point", "coordinates": [-60.46649074993831, -31.77842002031277, 0.0]}}, {"type": "Feature", "properties": {"name": "AVDA JORGE NEWBWERY Y ANTONIO BONELL", "styleUrl": "#msn_target10"}, "geometry": {"type": "Point", "coordinates": [-60.46694921323189, -31.78073593838818, 0.0]}}, {"type": "Feature", "properties": {"name": "CALLE 802 Y RUTA 12", "styleUrl": "#msn_target10"}, "geometry": {"type": "Point", "coordinates": [-60.46148892651943, -31.77914186752242, 0.0]}}, {"type": "Feature", "properties": {"name": "LUIS SEVILLA Y MARIO LUNA", "styleUrl": "#msn_target10"}, "geometry": {"type": "Point", "coordinates": [-60.48003097278746, -31.77748039263814, 0.0]}}, {"type": "Feature", "properties": {"name": "CRISOLOGO LARRALDE Y AVDA PEDRO ZANNI", "styleUrl": "#msn_target10"}, "geometry": {"type": "Point", "coordinates": [-60.50218174412204, -31.78051503942831, 0.0]}}, {"type": "Feature", "properties": {"name": "RICARDO BALBIN Y AVDA PEDRO ZANNI", "styleUrl": "#msn_target10"}, "geometry": {"type": "Point", "coordinates": [-60.5032115881797, -31.78451787358973, 0.0]}}, {"type": "Feature", "properties": {"name": "JUAN B JUSTO Y AVDA PEDRO ZANNI", "styleUrl": "#msn_target10"}, "geometry": {"type": "Point", "coordinates": [-60.50423280926061, -31.78933103378426, 0.0]}}, {"type": "Feature", "properties": {"name": "RICARDO BALBIN Y RUTA 11", "styleUrl": "#msn_target10"}, "geometry": {"type": "Point", "coordinates": [-60.51723961739606, -31.78237410021742, 0.0]}}, {"type": "Feature", "properties": {"name": "GRAL ARTIGAS 3374", "styleUrl": "#msn_target10"}, "geometry": {"type": "Point", "coordinates": [-60.51493735143063, -31.78412949022661, 0.0]}}, {"type": "Feature", "properties": {"name": "RUTA 11 Y EQUICRED", "styleUrl": "#msn_target10"}, "geometry": {"type": "Point", "coordinates": [-60.51536190461824, -31.79189752445203, 0.0]}}, {"type": "Feature", "properties": {"name": "RUTA 11 Y LISANDRO DE LA TORRE", "styleUrl": "#msn_target10"}, "geometry": {"type": "Point", "coordinates": [-60.51515599750318, -31.79269621863591, 0.0]}}, {"type": "Feature", "properties": {"name": "RUTA 11 5748", "styleUrl": "#msn_target10"}, "geometry": {"type": "Point", "coordinates": [-60.51517607815024, -31.79411009921555, 0.0]}}, {"type": "Feature", "properties": {"name": "CAMINO DE LA CUCHILLA Y RUTA 11 KM5 1/2", "styleUrl": "#msn_target10"}, "geometry": {"type": "Point", "coordinates": [-60.51415254364376, -31.79816334445458, 0.0]}}, {"type": "Feature", "properties": {"name": "LOS CEDROS Y AVDA LOS CISNES", "styleUrl": "#msn_target10"}, "geometry": {"type": "Point", "coordinates": [-60.51241772503189, -31.81053383560059, 0.0]}}, {"type": "Feature", "properties": {"name": "AVDA LOS EUCALIPTUS Y AVDA LOS CISNES", "styleUrl": "#msn_target10"}, "geometry": {"type": "Point", "coordinates": [-60.51277086543594, -31.8242380972619, 0.0]}}, {"type": "Feature", "properties": {"name": "AVDA LOS CHAÑARES Y AVDA INT DEL CASTILLO", "styleUrl": "#msn_target10"}, "geometry": {"type": "Point", "coordinates": [-60.51576261379079, -31.82176685805406, 0.0]}}, {"type": "Feature", "properties": {"name": "AVDA LOS CHAÑARES Y LAS GOLONDRINAS", "styleUrl": "#msn_target10"}, "geometry": {"type": "Point", "coordinates": [-60.52042313374802, -31.82062111509909, 0.0]}}, {"type": "Feature", "properties": {"name": "LOS CIRUELOS Y AVDA INTENDENTE DEL CASTILLO", "styleUrl": "#msn_target10"}, "geometry": {"type": "Point", "coordinates": [-60.5151598645896, -31.81614825265701, 0.0]}}, {"type": "Feature", "properties": {"name": "LOS SAUCES Y AVDA INTENDENTE DEL CASTILLO", "styleUrl": "#msn_target10"}, "geometry": {"type": "Point", "coordinates": [-60.51745021476511, -31.82741288222359, 0.0]}}, {"type": "Feature", "properties": {"name": "LOS SAUCES Y LAS GOLONDRINAS", "styleUrl": "#msn_target10"}, "geometry": {"type": "Point", "coordinates": [-60.52255549630641, -31.82613233544435, 0.0]}}, {"type": "Feature", "properties": {"name": "LOS SAUCES Y LAS TACUARAS", "styleUrl": "#msn_target10"}, "geometry": {"type": "Point", "coordinates": [-60.52474394853311, -31.82514908845257, 0.0]}}, {"type": "Feature", "properties": {"name": "LOS SAUCES Y LOS TORDOS", "styleUrl": "#msn_target10"}, "geometry": {"type": "Point", "coordinates": [-60.52366629091304, -31.82584595190177, 0.0]}}, {"type": "Feature", "properties": {"name": "LOS JACARANDAES Y LOS TORDOS", "styleUrl": "#msn_target10"}, "geometry": {"type": "Point", "coordinates": [-60.5227208626722, -31.82310879673541, 0.0]}}, {"type": "Feature", "properties": {"name": "AVDA LOS LAURELES Y AVDA INTENDENTE DEL CASTILLO", "styleUrl": "#msn_target10"}, "geometry": {"type": "Point", "coordinates": [-60.51814997150954, -31.8300240114595, 0.0]}}, {"type": "Feature", "properties": {"name": "RUTA 11 Y BVARD LOS ÑANDUES", "styleUrl": "#msn_target10"}, "geometry": {"type": "Point", "coordinates": [-60.5414338250552, -31.84425440086733, 0.0]}}, {"type": "Feature", "properties": {"name": "CORTADA 832 Y MOISES LEBENSON", "styleUrl": "#msn_target10"}, "geometry": {"type": "Point", "coordinates": [-60.53083963280049, -31.77514313432035, 0.0]}}, {"type": "Feature", "properties": {"name": "PADRE UVA Y MOISES LEBENSON", "styleUrl": "#msn_target10"}, "geometry": {"type": "Point", "coordinates": [-60.53192118591549, -31.78008663380988, 0.0]}}, {"type": "Feature", "properties": {"name": "JUAN BAEZ Y AVDA EJERCITO", "styleUrl": "#msn_target10"}, "geometry": {"type": "Point", "coordinates": [-60.54116305433143, -31.76850509036134, 0.0]}}, {"type": "Feature", "properties": {"name": "JUAN BAEZ Y SELVA DE MONTIEL", "styleUrl": "#msn_target10"}, "geometry": {"type": "Point", "coordinates": [-60.55268882910045, -31.76669687490833, 0.0]}}, {"type": "Feature", "properties": {"name": "PADRE PASCUAL UVA Y JOSE MARIA PAZ", "styleUrl": "#msn_target10"}, "geometry": {"type": "Point", "coordinates": [-60.54923483202887, -31.77228580395027, 0.0]}}, {"type": "Feature", "properties": {"name": "PABLO CRAUSAZ Y AVDA EJERCITO", "styleUrl": "#msn_target10"}, "geometry": {"type": "Point", "coordinates": [-60.53996933729016, -31.76379979023715, 0.0]}}, {"type": "Feature", "properties": {"name": "VIRREY VERTIZ Y CALLE 1011", "styleUrl": "#msn_target10"}, "geometry": {"type": "Point", "coordinates": [-60.55006681955259, -31.74764913944581, 0.0]}}, {"type": "Feature", "properties": {"name": "VIRREY VERTIZ 2169", "styleUrl": "#msn_target10"}, "geometry": {"type": "Point", "coordinates": [-60.55212709248692, -31.74730687402613, 0.0]}}, {"type": "Feature", "properties": {"name": "LUIS PALMA Y SANTA ELENA", "styleUrl": "#msn_target10"}, "geometry": {"type": "Point", "coordinates": [-60.54671292532662, -31.7456852086587, 0.0]}}, {"type": "Feature", "properties": {"name": "VIRREY VERTIZ Y SELVA DE MONTIEL", "styleUrl": "#msn_target10"}, "geometry": {"type": "Point", "coordinates": [-60.54865487101214, -31.74787458520799, 0.0]}}, {"type": "Feature", "properties": {"name": "VIRGEN DE ITATI Y SANTA ELENA", "styleUrl": "#msn_target10"}, "geometry": {"type": "Point", "coordinates": [-60.54720884543297, -31.74740492216387, 0.0]}}, {"type": "Feature", "properties": {"name": "LUIS PALMA Y VICENTE QUESADA", "styleUrl": "#msn_target10"}, "geometry": {"type": "Point", "coordinates": [-60.54379528843521, -31.7461536381733, 0.0]}}, {"type": "Feature", "properties": {"name": "VIRGEN NUESTRA SEÑORA DEL LUJAN Y SANTA ELENA", "styleUrl": "#msn_target10"}, "geometry": {"type": "Point", "coordinates": [-60.54622230994049, -31.74480464798268, 0.0]}}, {"type": "Feature", "properties": {"name": "BRIG LOPEZ Y CORONEL DOMINGUEZ", "styleUrl": "#msn_target10"}, "geometry": {"type": "Point", "coordinates": [-60.54604111614382, -31.74252405155758, 0.0]}}, {"type": "Feature", "properties": {"name": "GRAL GALAN Y CORONEL DOMINGUEZ", "styleUrl": "#msn_target10"}, "geometry": {"type": "Point", "coordinates": [-60.54568157577385, -31.74091858271028, 0.0]}}, {"type": "Feature", "properties": {"name": "GRL GALAN Y SELVA DE MONTIEL", "styleUrl": "#msn_target10"}, "geometry": {"type": "Point", "coordinates": [-60.54713418542482, -31.74070212678575, 0.0]}}, {"type": "Feature", "properties": {"name": "CASIANO CALDERON Y CORONEL DOMINGUEZ", "styleUrl": "#msn_target10"}, "geometry": {"type": "Point", "coordinates": [-60.54458509656139, -31.73887176943651, 0.0]}}, {"type": "Feature", "properties": {"name": "CASIANO CALDERON Y CORONEL CAMINOS", "styleUrl": "#msn_target10"}, "geometry": {"type": "Point", "coordinates": [-60.54332124939705, -31.7400718965906, 0.0]}}, {"type": "Feature", "properties": {"name": "GRAL GALAN Y CASIANO CALDERON", "styleUrl": "#msn_target10"}, "geometry": {"type": "Point", "coordinates": [-60.54144698683836, -31.74144374759798, 0.0]}}, {"type": "Feature", "properties": {"name": "SANTOS VEGA 24", "styleUrl": "#msn_target10"}, "geometry": {"type": "Point", "coordinates": [-60.54021790303512, -31.73892690044595, 0.0]}}, {"type": "Feature", "properties": {"name": "PRONUNCIAMIENTO Y JOSE MARIA PAZ", "styleUrl": "#msn_target10"}, "geometry": {"type": "Point", "coordinates": [-60.53862364733252, -31.73870531674397, 0.0]}}, {"type": "Feature", "properties": {"name": "CASIANO CALDERON Y JUAN SOLDADO", "styleUrl": "#msn_target10"}, "geometry": {"type": "Point", "coordinates": [-60.54522115706756, -31.73837137984221, 0.0]}}, {"type": "Feature", "properties": {"name": "1 DE MAYO Y SELVA DE MONTIEL", "styleUrl": "#msn_target10"}, "geometry": {"type": "Point", "coordinates": [-60.54667314857349, -31.73855770313789, 0.0]}}, {"type": "Feature", "properties": {"name": "GRAL GALAN Y LOS CEIBOS", "styleUrl": "#msn_target10"}, "geometry": {"type": "Point", "coordinates": [-60.55095533912142, -31.73994831237746, 0.0]}}, {"type": "Feature", "properties": {"name": "MARIA CATALINA DE ORTIZ Y LOS TALAS", "styleUrl": "#msn_target10"}, "geometry": {"type": "Point", "coordinates": [-60.55027881096792, -31.74184260891827, 0.0]}}, {"type": "Feature", "properties": {"name": "1 DE MAYO Y LOS CHANAS", "styleUrl": "#msn_target10"}, "geometry": {"type": "Point", "coordinates": [-60.55272117174776, -31.73734034632015, 0.0]}}, {"type": "Feature", "properties": {"name": "LORENZO GOIRDA Y GERMAN BURMEISTER", "styleUrl": "#msn_target10"}, "geometry": {"type": "Point", "coordinates": [-60.55457817682743, -31.73608817453707, 0.0]}}, {"type": "Feature", "properties": {"name": "1 DE MAYO Y LOS JACARANDAES", "styleUrl": "#msn_target10"}, "geometry": {"type": "Point", "coordinates": [-60.54996022814188, -31.73772395737508, 0.0]}}, {"type": "Feature", "properties": {"name": "DON SEGUNDO SOMBRA Y SELVA DE MONTIEL", "styleUrl": "#msn_target10"}, "geometry": {"type": "Point", "coordinates": [-60.54610550579411, -31.73496855529663, 0.0]}}, {"type": "Feature", "properties": {"name": "EL RESERO Y EL RODEO", "styleUrl": "#msn_target10"}, "geometry": {"type": "Point", "coordinates": [-60.54848875154933, -31.73264958368662, 0.0]}}, {"type": "Feature", "properties": {"name": "CASIANO CALDERON Y CLARK", "styleUrl": "#msn_target10"}, "geometry": {"type": "Point", "coordinates": [-60.55250713683028, -31.73409809373032, 0.0]}}, {"type": "Feature", "properties": {"name": "ÑANDUBAY Y GERMAN BURMEISTER", "styleUrl": "#msn_target10"}, "geometry": {"type": "Point", "coordinates": [-60.55433251042854, -31.73501854600215, 0.0]}}, {"type": "Feature", "properties": {"name": "DON SEGUNDO SOMBRA Y 1481", "styleUrl": "#msn_target10"}, "geometry": {"type": "Point", "coordinates": [-60.55638424954961, -31.73188598719748, 0.0]}}, {"type": "Feature", "properties": {"name": "CASIANO CALDERON Y 1481", "styleUrl": "#msn_target10"}, "geometry": {"type": "Point", "coordinates": [-60.55639726183312, -31.73385073980852, 0.0]}}, {"type": "Feature", "properties": {"name": "REPUBLICA DEL LIBANO Y CLARCK", "styleUrl": "#msn_target10"}, "geometry": {"type": "Point", "coordinates": [-60.55170413831799, -31.73074557345998, 0.0]}}, {"type": "Feature", "properties": {"name": "FLORENTINO AMEGHINO Y EL RODEO", "styleUrl": "#msn_target10"}, "geometry": {"type": "Point", "coordinates": [-60.54850735396476, -31.7299331896375, 0.0]}}, {"type": "Feature", "properties": {"name": "AVDA LARRAMENDI Y ROMINA ITURRAIN", "styleUrl": "#msn_target1"}, "geometry": {"type": "Point", "coordinates": [-60.54862493774338, -31.72131986763678, 0.0]}}, {"type": "Feature", "properties": {"name": "AVDA LAURENCENA Y VALENTIN DENIZ", "styleUrl": "#msn_target10"}, "geometry": {"type": "Point", "coordinates": [-60.55481033187506, -31.7169463869401, 0.0]}}, {"type": "Feature", "properties": {"name": "AVDA LARRAMENDI Y EMILIO PETORUTTI", "styleUrl": "#msn_target10"}, "geometry": {"type": "Point", "coordinates": [-60.55659674229016, -31.71418234297393, 0.0]}}, {"type": "Feature", "properties": {"name": "SUL XOLAR Y ALFREDO BIGATTI", "styleUrl": "#msn_target10"}, "geometry": {"type": "Point", "coordinates": [-60.55750141303915, -31.71487288683107, 0.0]}}, {"type": "Feature", "properties": {"name": "AVDA LARRAMENDI Y PASAJE PUBLICO", "styleUrl": "#msn_target10"}, "geometry": {"type": "Point", "coordinates": [-60.55964010444449, -31.71176531345975, 0.0]}}, {"type": "Feature", "properties": {"name": "AVDA LARRAMENDI 2786", "styleUrl": "#msn_target10"}, "geometry": {"type": "Point", "coordinates": [-60.56064957411887, -31.71145545593065, 0.0]}}, {"type": "Feature", "properties": {"name": "AVDA LARRAMENDI Y CROACIA", "styleUrl": "#msn_target10"}, "geometry": {"type": "Point", "coordinates": [-60.56308656354385, -31.71073089820299, 0.0]}}, {"type": "Feature", "properties": {"name": "AVDA LARRAMENDI Y AVDA JOSE MANUEL ESTRADA", "styleUrl": "#msn_target10"}, "geometry": {"type": "Point", "coordinates": [-60.57172171387596, -31.70880626053273, 0.0]}}, {"type": "Feature", "properties": {"name": "AVDA JOSE MANUEL ESTRADA 3680", "styleUrl": "#msn_target10"}, "geometry": {"type": "Point", "coordinates": [-60.56701816690479, -31.70701043887713, 0.0]}}, {"type": "Feature", "properties": {"name": "CROACIA Y AVDA JOSE MANUEL ESTRADA", "styleUrl": "#msn_target10"}, "geometry": {"type": "Point", "coordinates": [-60.56497558384949, -31.70670910349846, 0.0]}}, {"type": "Feature", "properties": {"name": "ALBERTO GINSASTERA Y MOSCONI", "styleUrl": "#msn_target10"}, "geometry": {"type": "Point", "coordinates": [-60.55171336537299, -31.7236076052609, 0.0]}}, {"type": "Feature", "properties": {"name": "ANACLETO MEDINA Y BVARD LAS PALMERAS", "styleUrl": "#msn_target10"}, "geometry": {"type": "Point", "coordinates": [-60.54473639618138, -31.7205816645182, 0.0]}}, {"type": "Feature", "properties": {"name": "CORONEL PALAVECINO Y PATAGONIA", "styleUrl": "#msn_target10"}, "geometry": {"type": "Point", "coordinates": [-60.53913776422056, -31.72314705385399, 0.0]}}, {"type": "Feature", "properties": {"name": "BVARD SARMIENTO Y AVALOS", "styleUrl": "#msn_target10"}, "geometry": {"type": "Point", "coordinates": [-60.54108659950559, -31.7229597283874, 0.0]}}, {"type": "Feature", "properties": {"name": "TEJEIRO MARTINEZ Y CATAMARCA", "styleUrl": "#msn_target10"}, "geometry": {"type": "Point", "coordinates": [-60.53613665429696, -31.72319481169436, 0.0]}}, {"type": "Feature", "properties": {"name": "PANAMA Y ALFREDO NUX", "styleUrl": "#msn_target10"}, "geometry": {"type": "Point", "coordinates": [-60.53982185326483, -31.72093920961629, 0.0]}}, {"type": "Feature", "properties": {"name": "APOLINARIO OSINALDE Y MADISOVI", "styleUrl": "#msn_target10"}, "geometry": {"type": "Point", "coordinates": [-60.54195971957616, -31.72098372798932, 0.0]}}, {"type": "Feature", "properties": {"name": "APOLINARIO OSINALDE 382", "styleUrl": "#msn_target10"}, "geometry": {"type": "Point", "coordinates": [-60.54291954615939, -31.72196559242278, 0.0]}}, {"type": "Feature", "properties": {"name": "APOLINARIO OSINALDE Y LOS VAZCOS", "styleUrl": "#msn_target10"}, "geometry": {"type": "Point", "coordinates": [-60.53929899356551, -31.71852654253037, 0.0]}}, {"type": "Feature", "properties": {"name": "ALAMEDA DE LA FEDERACION Y BERTOZZI", "styleUrl": "#msn_target10"}, "geometry": {"type": "Point", "coordinates": [-60.5367680989264, -31.71945037970647, 0.0]}}, {"type": "Feature", "properties": {"name": "PLAZA PETIT PISANT", "styleUrl": "#msn_target10"}, "geometry": {"type": "Point", "coordinates": [-60.53710877792115, -31.71600220221035, 0.0]}}, {"type": "Feature", "properties": {"name": "AVDA JOSE MANUEL CRESPO Y ANACLETO MEDINA", "styleUrl": "#msn_target10"}, "geometry": {"type": "Point", "coordinates": [-60.54024170416812, -31.71639183680672, 0.0]}}, {"type": "Feature", "properties": {"name": "AVDA JOSE MANUEL ESTRADA Y PADRE ROBERTO CROCE", "styleUrl": "#msn_target10"}, "geometry": {"type": "Point", "coordinates": [-60.54090004521785, -31.71539357475162, 0.0]}}, {"type": "Feature", "properties": {"name": "LA DELFINA Y ALAMEDA DE LA FEDERACION", "styleUrl": "#msn_target10"}, "geometry": {"type": "Point", "coordinates": [-60.54789724752659, -31.71155101439091, 0.0]}}, {"type": "Feature", "properties": {"name": "TUCUMAN 363", "styleUrl": "#msn_target10"}, "geometry": {"type": "Point", "coordinates": [-60.53361238306788, -31.72616955310899, 0.0]}}, {"type": "Feature", "properties": {"name": "NARCISO LAPRIDA Y TUCUMAN", "styleUrl": "#msn_target10"}, "geometry": {"type": "Point", "coordinates": [-60.533983659539, -31.72703993096096, 0.0]}}, {"type": "Feature", "properties": {"name": "NARCISO LAPRIDA 465", "styleUrl": "#msn_target10"}, "geometry": {"type": "Point", "coordinates": [-60.5348255606317, -31.72678253470861, 0.0]}}, {"type": "Feature", "properties": {"name": "CERVANTES Y TUCUMAN", "styleUrl": "#msn_target10"}, "geometry": {"type": "Point", "coordinates": [-60.53459303997713, -31.72822886502201, 0.0]}}, {"type": "Feature", "properties": {"name": "JUSTO JOSE DE URQUIZA 1366", "styleUrl": "#msn_target10"}, "geometry": {"type": "Point", "coordinates": [-60.5354054178429, -31.72978842932142, 0.0]}}, {"type": "Feature", "properties": {"name": "CERVANTES Y SANTA FE", "styleUrl": "#msn_target10"}, "geometry": {"type": "Point", "coordinates": [-60.53197201322289, -31.72921752201888, 0.0]}}, {"type": "Feature", "properties": {"name": "GRAL SAN MARTIN Y 800", "styleUrl": "#msn_target10"}, "geometry": {"type": "Point", "coordinates": [-60.52959257262181, -31.73127340690035, 0.0]}}, {"type": "Feature", "properties": {"name": "ANDRS PAZOS 26", "styleUrl": "#msn_target10"}, "geometry": {"type": "Point", "coordinates": [-60.52956821110554, -31.73152834833686, 0.0]}}, {"type": "Feature", "properties": {"name": "NARCISO LAPRIDA Y SANTA FE", "styleUrl": "#msn_target10"}, "geometry": {"type": "Point", "coordinates": [-60.53140156313639, -31.72793690750335, 0.0]}}, {"type": "Feature", "properties": {"name": "NARCISO LAPRIDA 136", "styleUrl": "#msn_target10"}, "geometry": {"type": "Point", "coordinates": [-60.53055514494508, -31.72814369328822, 0.0]}}, {"type": "Feature", "properties": {"name": "MEXICO Y SANTA FE", "styleUrl": "#msn_target10"}, "geometry": {"type": "Point", "coordinates": [-60.5308640438564, -31.72652218958137, 0.0]}}, {"type": "Feature", "properties": {"name": "FALUCHO Y CORDOBA", "styleUrl": "#msn_target10"}, "geometry": {"type": "Point", "coordinates": [-60.5313277440941, -31.7243201285003, 0.0]}}, {"type": "Feature", "properties": {"name": "CORDOBA 643", "styleUrl": "#msn_target10"}, "geometry": {"type": "Point", "coordinates": [-60.53039257367053, -31.72198355627455, 0.0]}}, {"type": "Feature", "properties": {"name": "FRANCISCO DE MIRANDA Y LUIS ETCHEVERRIA", "styleUrl": "#msn_target10"}, "geometry": {"type": "Point", "coordinates": [-60.52970117754857, -31.72004838790126, 0.0]}}, {"type": "Feature", "properties": {"name": "GARAY Y BUENOS AIRES", "styleUrl": "#msn_target10"}, "geometry": {"type": "Point", "coordinates": [-60.52871018895663, -31.72467973783513, 0.0]}}, {"type": "Feature", "properties": {"name": "BUENOS AIRES 431", "styleUrl": "#msn_target10"}, "geometry": {"type": "Point", "coordinates": [-60.52936128477551, -31.72630577167791, 0.0]}}, {"type": "Feature", "properties": {"name": "JUAN AMBROSETTI Y RAUL PATRICIO SOLANAS", "styleUrl": "#msn_target0"}, "geometry": {"type": "Point", "coordinates": [-60.504756134651, -31.72203357570721, 0.0]}}, {"type": "Feature", "properties": {"name": "JUAN AMBROSETTI Y AYACUCHO", "styleUrl": "#msn_target0"}, "geometry": {"type": "Point", "coordinates": [-60.50166582954211, -31.7225053447152, 0.0]}}, {"type": "Feature", "properties": {"name": "SOLANAS  DETRAS PUESTO TUNNEL", "styleUrl": "#msn_target0"}, "geometry": {"type": "Point", "coordinates": [-60.5033228574829, -31.7183728011785, 0.0]}}, {"type": "Feature", "properties": {"name": "ALFREDO DU GRATTY Y AUGUTO BRAVARD", "styleUrl": "#msn_target0"}, "geometry": {"type": "Point", "coordinates": [-60.51025363658965, -31.7187169142145, 0.0]}}, {"type": "Feature", "properties": {"name": "BALNEARIO THOMPSON", "styleUrl": "#msn_target0"}, "geometry": {"type": "Point", "coordinates": [-60.50790743701338, -31.71418468039015, 0.0]}}, {"type": "Feature", "properties": {"name": "ALFREDO DU GRATTY Y SOMON BOLIVAR", "styleUrl": "#msn_target0"}, "geometry": {"type": "Point", "coordinates": [-60.5141153886154, -31.71822716854298, 0.0]}}, {"type": "Feature", "properties": {"name": "CARLOS FUENTEALBA Y SIMON BOLIVAR", "styleUrl": "#msn_target0"}, "geometry": {"type": "Point", "coordinates": [-60.5146837927488, -31.72038348725315, 0.0]}}, {"type": "Feature", "properties": {"name": "JUAN PRINGLES Y FRAGATA DE SARMIENTO", "styleUrl": "#msn_target0"}, "geometry": {"type": "Point", "coordinates": [-60.50867221697134, -31.73153534197124, 0.0]}}, {"type": "Feature", "properties": {"name": "TACUARI 328", "styleUrl": "#msn_target0"}, "geometry": {"type": "Point", "coordinates": [-60.51040356878682, -31.72958057388515, 0.0]}}, {"type": "Feature", "properties": {"name": "JUAN PRINGLES Y BATALLA DE SUIPACHA", "styleUrl": "#msn_target0"}, "geometry": {"type": "Point", "coordinates": [-60.50683326893056, -31.73236912224302, 0.0]}}, {"type": "Feature", "properties": {"name": "MOSEÑOR JOSE DOBLER", "styleUrl": "#msn_target2"}, "geometry": {"type": "Point", "coordinates": [-60.49520643865872, -31.73365032971596, 0.0]}}, {"type": "Feature", "properties": {"name": "AVDA CIRCUNVALACION FRENTE A ESCUELA POLICIA", "styleUrl": "#msn_target2"}, "geometry": {"type": "Point", "coordinates": [-60.49430864303186, -31.72844974191062, 0.0]}}, {"type": "Feature", "properties": {"name": "ESTEBAN ETCHEVERRIA Y RONDEAU", "styleUrl": "#msn_target2"}, "geometry": {"type": "Point", "coordinates": [-60.49438886021879, -31.71583628905535, 0.0]}}, {"type": "Feature", "properties": {"name": "ESTEBAN ETCHEVERRIA Y AYACUCHO", "styleUrl": "#msn_target2"}, "geometry": {"type": "Point", "coordinates": [-60.50008136688969, -31.71516747770713, 0.0]}}, {"type": "Feature", "properties": {"name": "PLAZA DE LAS MUJERES ENTRERRIANAS", "styleUrl": "#msn_target2"}, "geometry": {"type": "Point", "coordinates": [-60.51100134622946, -31.74963517231916, 0.0]}}, {"type": "Feature", "properties": {"name": "ALMTE COCHRANE Y ARTIGAS", "styleUrl": "#msn_target2"}, "geometry": {"type": "Point", "coordinates": [-60.50919118712608, -31.75637878461952, 0.0]}}, {"type": "Feature", "properties": {"name": "ALMTE COCHRANE Y PACTO UNION NACIONAL", "styleUrl": "#msn_target2"}, "geometry": {"type": "Point", "coordinates": [-60.51113592042965, -31.75665305010948, 0.0]}}, {"type": "Feature", "properties": {"name": "PROVINCIAS UNIDAS Y JUAN GARRIGO", "styleUrl": "#msn_target2"}, "geometry": {"type": "Point", "coordinates": [-60.50392327763371, -31.75923565901312, 0.0]}}, {"type": "Feature", "properties": {"name": "PROVINCIAS UNIDAS Y MIGUEL DE UNAMUNO", "styleUrl": "#msn_target2"}, "geometry": {"type": "Point", "coordinates": [-60.5027897905998, -31.75941175373866, 0.0]}}, {"type": "Feature", "properties": {"name": "PROVINCIAS UNIDAS Y AVDA PEDRO ZANNI", "styleUrl": "#msn_target2"}, "geometry": {"type": "Point", "coordinates": [-60.49792258606267, -31.76031962283995, 0.0]}}, {"type": "Feature", "properties": {"name": "BERNARDO OHIGGINS Y LAS GARZAS", "styleUrl": "#msn_target2"}, "geometry": {"type": "Point", "coordinates": [-60.50234143332397, -31.7648039360999, 0.0]}}, {"type": "Feature", "properties": {"name": "BERNARDO OHIGGINS Y JUAN GARRIGO", "styleUrl": "#msn_target2"}, "geometry": {"type": "Point", "coordinates": [-60.50501227310559, -31.76436068597121, 0.0]}}, {"type": "Feature", "properties": {"name": "BERNARDO OHIGGINS Y GERVASIO ARTIGAS", "styleUrl": "#msn_target2"}, "geometry": {"type": "Point", "coordinates": [-60.51055095622515, -31.76346953379614, 0.0]}}, {"type": "Feature", "properties": {"name": "BERNARDO OHIGGINS Y DIVISION LOS ANDES", "styleUrl": "#msn_target2"}, "geometry": {"type": "Point", "coordinates": [-60.51643638429787, -31.76238542001519, 0.0]}}, {"type": "Feature", "properties": {"name": "GRAL SAROBE Y AVDA DE LAS AMERICAS", "styleUrl": "#msn_target2"}, "geometry": {"type": "Point", "coordinates": [-60.52766852542448, -31.76060858808057, 0.0]}}, {"type": "Feature", "properties": {"name": "AVDA CIRCUNVALACION JOSE HERNANDEZ Y HECTOR MAYA", "styleUrl": "#msn_target2"}, "geometry": {"type": "Point", "coordinates": [-60.45339151705026, -31.73578903219281, 0.0]}}, {"type": "Feature", "properties": {"name": "AVDA CIRCUNVALACION JOSE HERNANDEZ Y GDOR MANUEL CRESPO", "styleUrl": "#msn_target2"}, "geometry": {"type": "Point", "coordinates": [-60.48659669234912, -31.73363924036383, 0.0]}}, {"type": "Feature", "properties": {"name": "BLAS PARERA 8800", "styleUrl": "#msn_target2"}, "geometry": {"type": "Point", "coordinates": [-60.48500998648231, -31.70386174958188, 0.0]}}, {"type": "Feature", "properties": {"name": "VICENTE PLANES Y FRAY MAMERTO ESQUIU", "styleUrl": "#msn_target2"}, "geometry": {"type": "Point", "coordinates": [-60.51513459320653, -31.73933580851142, 0.0]}}, {"type": "Feature", "properties": {"name": "JOSE CLARK Y FRAY MAMERTO SQUIU", "styleUrl": "#msn_target2"}, "geometry": {"type": "Point", "coordinates": [-60.5156826344457, -31.7412672797677, 0.0]}}, {"type": "Feature", "properties": {"name": "URDINARRAIN Y AVDA FRANCISCO RAMIREZ", "styleUrl": "#msn_target2"}, "geometry": {"type": "Point", "coordinates": [-60.51735230148579, -31.74109609740763, 0.0]}}, {"type": "Feature", "properties": {"name": "VICENTE LOPEZ Y PLANES  Y BRASIL", "styleUrl": "#msn_target2"}, "geometry": {"type": "Point", "coordinates": [-60.51634796328066, -31.73894494943025, 0.0]}}, {"type": "Feature", "properties": {"name": "ESCALADA DE SAN MARTIN Y ADOLFO ALSINA", "styleUrl": "#msn_target2"}, "geometry": {"type": "Point", "coordinates": [-60.51789253760691, -31.73910632944116, 0.0]}}, {"type": "Feature", "properties": {"name": "ALMTE GUILLERMO BROWN Y AVDA RAMIREZ", "styleUrl": "#msn_target2"}, "geometry": {"type": "Point", "coordinates": [-60.5171449742511, -31.73790608801774, 0.0]}}, {"type": "Feature", "properties": {"name": "CORONEL DIAZ Y SARA DE ECLESTON", "styleUrl": "#msn_target2"}, "geometry": {"type": "Point", "coordinates": [-60.51573370103491, -31.75622557190323, 0.0]}}, {"type": "Feature", "properties": {"name": "SANTO DOMINGUEZ Y CNEL UZIN", "styleUrl": "#msn_target2"}, "geometry": {"type": "Point", "coordinates": [-60.51380842083794, -31.75397934113587, 0.0]}}, {"type": "Feature", "properties": {"name": "SANTO DOMINGUEZ Y DIVISION LOS ANDES", "styleUrl": "#msn_target2"}, "geometry": {"type": "Point", "coordinates": [-60.51431417147693, -31.75328270054554, 0.0]}}, {"type": "Feature", "properties": {"name": "17 DE OCTUBRE Y AVDA FRANCISCO RAMIREZ", "styleUrl": "#msn_target2"}, "geometry": {"type": "Point", "coordinates": [-60.52031335516861, -31.75370143702325, 0.0]}}, {"type": "Feature", "properties": {"name": "MARCOS SASTRE Y JOSE RUPERTO PEREZ", "styleUrl": "#msn_target2"}, "geometry": {"type": "Point", "coordinates": [-60.51652607715111, -31.75057333641108, 0.0]}}, {"type": "Feature", "properties": {"name": "MARCOS SASTRE 299", "styleUrl": "#msn_target2"}, "geometry": {"type": "Point", "coordinates": [-60.51560528702251, -31.75072679517024, 0.0]}}, {"type": "Feature", "properties": {"name": "SALVADOR MACIA Y JOSE RUPERTO PEREZ", "styleUrl": "#msn_target2"}, "geometry": {"type": "Point", "coordinates": [-60.51605648998688, -31.74802225329754, 0.0]}}, {"type": "Feature", "properties": {"name": "BLVARD EDUARDO RACEDO Y AVDA FRANCISCO RAMIREZ", "styleUrl": "#msn_target2"}, "geometry": {"type": "Point", "coordinates": [-60.51917818840612, -31.7475531516693, 0.0]}}, {"type": "Feature", "properties": {"name": "BVARD EDUADRO RACEDO Y FELICIANO", "styleUrl": "#msn_target2"}, "geometry": {"type": "Point", "coordinates": [-60.52072188507469, -31.74730586921988, 0.0]}}, {"type": "Feature", "properties": {"name": "LUIS PASTEUR Y AVDA DE LAS AMERICAS", "styleUrl": "#msn_target2"}, "geometry": {"type": "Point", "coordinates": [-60.52520733999592, -31.74920339452914, 0.0]}}, {"type": "Feature", "properties": {"name": "EDMUNDO DE AMICIS Y AVDA DE LAS AMERICAS", "styleUrl": "#msn_target2"}, "geometry": {"type": "Point", "coordinates": [-60.52544805583539, -31.75031885645124, 0.0]}}, {"type": "Feature", "properties": {"name": "ALEJO PEIRET Y TORIBIO ORTIZ", "styleUrl": "#msn_target2"}, "geometry": {"type": "Point", "coordinates": [-60.52420123492244, -31.75184795579441, 0.0]}}, {"type": "Feature", "properties": {"name": "PRONUNCIAMIENTO Y AVDA DE LAS AMERICAS", "styleUrl": "#msn_target2"}, "geometry": {"type": "Point", "coordinates": [-60.52588219680454, -31.75229028104125, 0.0]}}, {"type": "Feature", "properties": {"name": "BVARD EDUARDO RACEDO Y AVDA DE LAS AMERICAS", "styleUrl": "#msn_target2"}, "geometry": {"type": "Point", "coordinates": [-60.52488031630035, -31.74674378246804, 0.0]}}, {"type": "Feature", "properties": {"name": "MAIPU Y CURA ALVAREZ", "styleUrl": "#msn_target2"}, "geometry": {"type": "Point", "coordinates": [-60.52493533927569, -31.74583695131638, 0.0]}}, {"type": "Feature", "properties": {"name": "CURA ALVAREZ 771", "styleUrl": "#msn_target2"}, "geometry": {"type": "Point", "coordinates": [-60.52362556565999, -31.74434122768114, 0.0]}}, {"type": "Feature", "properties": {"name": "MAIPU Y PASCUAL PALMA", "styleUrl": "#msn_target2"}, "geometry": {"type": "Point", "coordinates": [-60.52760032515287, -31.74446206096459, 0.0]}}, {"type": "Feature", "properties": {"name": "BVARD EDUARDO RACEDO Y PASCUAL PALMA", "styleUrl": "#msn_target2"}, "geometry": {"type": "Point", "coordinates": [-60.52885424774551, -31.74552288620874, 0.0]}}, {"type": "Feature", "properties": {"name": "FELICIANO Y PASCUAL PALMA", "styleUrl": "#msn_target2"}, "geometry": {"type": "Point", "coordinates": [-60.52641005797192, -31.74275411346118, 0.0]}}, {"type": "Feature", "properties": {"name": "VILLAGUAY Y HIPOLITO HIRIGOYEN", "styleUrl": "#msn_target2"}, "geometry": {"type": "Point", "coordinates": [-60.52703090409582, -31.7410331565225, 0.0]}}, {"type": "Feature", "properties": {"name": "ENRIQUE CARBO Y HIPOLITO IRIGOYEN", "styleUrl": "#msn_target2"}, "geometry": {"type": "Point", "coordinates": [-60.52630752435248, -31.73998699018601, 0.0]}}, {"type": "Feature", "properties": {"name": "GRAL JUSTO JOSE DE URQUIZA Y ARTURO ILLIA", "styleUrl": "#msn_target2"}, "geometry": {"type": "Point", "coordinates": [-60.52433443861784, -31.73422718999259, 0.0]}}, {"type": "Feature", "properties": {"name": "ANDRES PAZOS Y LA RIOJA", "styleUrl": "#msn_target2"}, "geometry": {"type": "Point", "coordinates": [-60.52403421863482, -31.73365094077715, 0.0]}}, {"type": "Feature", "properties": {"name": "25 DE MAYO Y ECHAGUE", "styleUrl": "#msn_target2"}, "geometry": {"type": "Point", "coordinates": [-60.52374250763497, -31.73582360869454, 0.0]}}, {"type": "Feature", "properties": {"name": "ARTURO ILLIA 175", "styleUrl": "#msn_target2"}, "geometry": {"type": "Point", "coordinates": [-60.52576350423453, -31.73627593561685, 0.0]}}, {"type": "Feature", "properties": {"name": "GUALEGUAYCHU Y PEATONAL", "styleUrl": "#msn_target2"}, "geometry": {"type": "Point", "coordinates": [-60.5317220679711, -31.7354690439495, 0.0]}}, {"type": "Feature", "properties": {"name": "ERNESTO BAVIO Y CARLOS PELLEGRINI", "styleUrl": "#msn_target2"}, "geometry": {"type": "Point", "coordinates": [-60.532858901724, -31.73498029674987, 0.0]}}, {"type": "Feature", "properties": {"name": "ERNESTO BAVIO E ITALIA", "styleUrl": "#msn_target2"}, "geometry": {"type": "Point", "coordinates": [-60.53400454100828, -31.73450439219441, 0.0]}}, {"type": "Feature", "properties": {"name": "ERNESTO BAVIO Y LIBERTAD", "styleUrl": "#msn_target2"}, "geometry": {"type": "Point", "coordinates": [-60.5356198023012, -31.73380790134124, 0.0]}}, {"type": "Feature", "properties": {"name": "ERNESTO BAVIO Y COURREGES", "styleUrl": "#msn_target2"}, "geometry": {"type": "Point", "coordinates": [-60.53722505677506, -31.73313984960368, 0.0]}}, {"type": "Feature", "properties": {"name": "ESPAÑA 333", "styleUrl": "#msn_target2"}, "geometry": {"type": "Point", "coordinates": [-60.53530386017919, -31.73158191438931, 0.0]}}, {"type": "Feature", "properties": {"name": "PARAGUAY Y DIAMANTE", "styleUrl": "#msn_target2"}, "geometry": {"type": "Point", "coordinates": [-60.54004783162138, -31.73314328601753, 0.0]}}, {"type": "Feature", "properties": {"name": "MONTEVIDEO Y CONCORDIA", "styleUrl": "#msn_target2"}, "geometry": {"type": "Point", "coordinates": [-60.53934573884859, -31.73449624373257, 0.0]}}, {"type": "Feature", "properties": {"name": "SANCHEZ Y MALENA DE GIUSTI", "styleUrl": "#msn_target2"}, "geometry": {"type": "Point", "coordinates": [-60.54098189049645, -31.73311252174637, 0.0]}}, {"type": "Feature", "properties": {"name": "MALENA DE GIUSTI Y PLANTA REGULADORA", "styleUrl": "#msn_target2"}, "geometry": {"type": "Point", "coordinates": [-60.54090310665317, -31.73396561475251, 0.0]}}, {"type": "Feature", "properties": {"name": "ITUZAINGO Y SANCHEZ", "styleUrl": "#msn_target2"}, "geometry": {"type": "Point", "coordinates": [-60.54342675790936, -31.73425947438603, 0.0]}}, {"type": "Feature", "properties": {"name": "ITUZAINGO Y DIAMANTE", "styleUrl": "#msn_target2"}, "geometry": {"type": "Point", "coordinates": [-60.54106854695435, -31.73487297760703, 0.0]}}, {"type": "Feature", "properties": {"name": "JOSE MARIA LOPEZ Y RONDEAU", "styleUrl": "#msn_target2"}, "geometry": {"type": "Point", "coordinates": [-60.50113725327729, -31.74688852997766, 0.0]}}, {"type": "Feature", "properties": {"name": "MARTIN ZAPATA Y RONDEAU", "styleUrl": "#msn_target2"}, "geometry": {"type": "Point", "coordinates": [-60.50132125698225, -31.74770896616016, 0.0]}}, {"type": "Feature", "properties": {"name": "MARTIN ZAPATA Y DELFIN HUERGO", "styleUrl": "#msn_target2"}, "geometry": {"type": "Point", "coordinates": [-60.50319526443157, -31.74741811757236, 0.0]}}, {"type": "Feature", "properties": {"name": "AVDA ALMAFUERTE Y DELFIN HUERGO", "styleUrl": "#msn_target2"}, "geometry": {"type": "Point", "coordinates": [-60.50474194793233, -31.75020288606086, 0.0]}}, {"type": "Feature", "properties": {"name": "REGIS MARTINEZ Y RIO NEGRO", "styleUrl": "#msn_target2"}, "geometry": {"type": "Point", "coordinates": [-60.49764028638599, -31.74949154331119, 0.0]}}, {"type": "Feature", "properties": {"name": "FRANCIA Y RIO NEGRO", "styleUrl": "#msn_target2"}, "geometry": {"type": "Point", "coordinates": [-60.49792391754108, -31.75085416799607, 0.0]}}, {"type": "Feature", "properties": {"name": "AVDA ALMAFUERTE Y RIO NEGRO", "styleUrl": "#msn_target2"}, "geometry": {"type": "Point", "coordinates": [-60.49912163736744, -31.75373943267688, 0.0]}}, {"type": "Feature", "properties": {"name": "AVDA ALMAFUERTE Y BLAS PARERA", "styleUrl": "#msn_target1"}, "geometry": {"type": "Point", "coordinates": [-60.49710117998418, -31.75511684042434, 0.0]}}, {"type": "Feature", "properties": {"name": "FRANCIA Y BLAS PARERA", "styleUrl": "#msn_target2"}, "geometry": {"type": "Point", "coordinates": [-60.49597493170518, -31.75119758490757, 0.0]}}, {"type": "Feature", "properties": {"name": "FRANCIA Y GDOR MANUEL CRESPO", "styleUrl": "#msn_target2"}, "geometry": {"type": "Point", "coordinates": [-60.490375912481, -31.7520158763438, 0.0]}}, {"type": "Feature", "properties": {"name": "SALUSTINO ZAVALIA Y SANTA MARIA DE ORO", "styleUrl": "#msn_target2"}, "geometry": {"type": "Point", "coordinates": [-60.4939138611034, -31.74805946939912, 0.0]}}, {"type": "Feature", "properties": {"name": "RICARDO GUIRALDES Y JUNIN", "styleUrl": "#msn_target2"}, "geometry": {"type": "Point", "coordinates": [-60.49197100076689, -31.74791380012707, 0.0]}}, {"type": "Feature", "properties": {"name": "CESARIO QUIROS Y MARIANO MONTI", "styleUrl": "#msn_target2"}, "geometry": {"type": "Point", "coordinates": [-60.48548349316664, -31.75071611056038, 0.0]}}, {"type": "Feature", "properties": {"name": "CESARIO QUIROS Y CELIA TORRA", "styleUrl": "#msn_target2"}, "geometry": {"type": "Point", "coordinates": [-60.48724392201677, -31.7510289345248, 0.0]}}, {"type": "Feature", "properties": {"name": "FRANCIA Y CELIA TORRA", "styleUrl": "#msn_target2"}, "geometry": {"type": "Point", "coordinates": [-60.48757949560002, -31.75257068903776, 0.0]}}, {"type": "Feature", "properties": {"name": "CALLE 1310 Y CELIA TORRA", "styleUrl": "#msn_target2"}, "geometry": {"type": "Point", "coordinates": [-60.48801683088483, -31.75470555130729, 0.0]}}, {"type": "Feature", "properties": {"name": "MARIO ABEL MAYA Y ROBERTO SATLER", "styleUrl": "#msn_target2"}, "geometry": {"type": "Point", "coordinates": [-60.52059280224596, -31.76942182457007, 0.0]}}, {"type": "Feature", "properties": {"name": "MIGUEL DAVID Y VICTORINO CAMERANO", "styleUrl": "#msn_target2"}, "geometry": {"type": "Point", "coordinates": [-60.51886843866592, -31.76682343205892, 0.0]}}, {"type": "Feature", "properties": {"name": "DE LA REVOLUCION DE 1890 Y AVDA FRANCISCO RAMIREZ", "styleUrl": "#msn_target2"}, "geometry": {"type": "Point", "coordinates": [-60.52234865670111, -31.76375032021779, 0.0]}}, {"type": "Feature", "properties": {"name": "REVOLUCION DE 1890 Y JUANA DE IBARBOURU", "styleUrl": "#msn_target2"}, "geometry": {"type": "Point", "coordinates": [-60.52333242935763, -31.76333019258891, 0.0]}}, {"type": "Feature", "properties": {"name": "GRAL SAROBE Y AVDA FRANCISCO RAMIREZ", "styleUrl": "#msn_target2"}, "geometry": {"type": "Point", "coordinates": [-60.5218971208666, -31.76160814301784, 0.0]}}, {"type": "Feature", "properties": {"name": "AVDA DE LAS AMERICAS Y AVDA FRANCISCO RAMIREZ", "styleUrl": "#msn_target2"}, "geometry": {"type": "Point", "coordinates": [-60.52366276416655, -31.7695778467668, 0.0]}}, {"type": "Feature", "properties": {"name": "LUIS FUSARI Y AVDA FRANCISCO RAMIREZ", "styleUrl": "#msn_target2"}, "geometry": {"type": "Point", "coordinates": [-60.52342748578425, -31.76846265165288, 0.0]}}, {"type": "Feature", "properties": {"name": "PASCUAL GRECA Y PUERTO DE LA CRUZ", "styleUrl": "#msn_target2"}, "geometry": {"type": "Point", "coordinates": [-60.53234944982461, -31.76801278206778, 0.0]}}, {"type": "Feature", "properties": {"name": "LA PAZ 52", "styleUrl": "#msn_target2"}, "geometry": {"type": "Point", "coordinates": [-60.52779814600137, -31.72879248843317, 0.0]}}, {"type": "Feature", "properties": {"name": "CORRIENTES 362", "styleUrl": "#msn_target2"}, "geometry": {"type": "Point", "coordinates": [-60.52670199923673, -31.72834104081677, 0.0]}}, {"type": "Feature", "properties": {"name": "NARCISO LAPRIDA Y PEATONAL", "styleUrl": "#msn_target2"}, "geometry": {"type": "Point", "coordinates": [-60.52868791399511, -31.72884289601002, 0.0]}}, {"type": "Feature", "properties": {"name": "25 DE MAYO Y 9 DE JULIO", "styleUrl": "#msn_target2"}, "geometry": {"type": "Point", "coordinates": [-60.52786080016369, -31.73414519386904, 0.0]}}, {"type": "Feature", "properties": {"name": "25 DE MAYO Y MONTE CASEROS", "styleUrl": "#msn_target2"}, "geometry": {"type": "Point", "coordinates": [-60.52938514850845, -31.73359874969024, 0.0]}}, {"type": "Feature", "properties": {"name": "LUIS CHAILE Y BLAS PARERA", "styleUrl": "#msn_target2"}, "geometry": {"type": "Point", "coordinates": [-60.49377696964312, -31.74289458668455, 0.0]}}, {"type": "Feature", "properties": {"name": "ITALIA 66", "styleUrl": "#msn_target2"}, "geometry": {"type": "Point", "coordinates": [-60.53298509526158, -31.73195688187396, 0.0]}}, {"type": "Feature", "properties": {"name": "JUSTO JOSE DE URQUIZA Y BUENOS AIRES", "styleUrl": "#msn_target2"}, "geometry": {"type": "Point", "coordinates": [-60.53144307227651, -31.73170554413088, 0.0]}}, {"type": "Feature", "properties": {"name": "ENTRE RIOS Y RUTA 12", "styleUrl": "#msn_target2"}, "geometry": {"type": "Point", "coordinates": [-60.39964042220867, -31.76710622437142, 0.0]}}, {"type": "Feature", "properties": {"name": "RUTA 18 Y LOS TALAS", "styleUrl": "#msn_target2"}, "geometry": {"type": "Point", "coordinates": [-60.40261733335124, -31.77075290005507, 0.0]}}, {"type": "Feature", "properties": {"name": "GUILLERMO SARAVI Y 3 DE FEBRERO", "styleUrl": "#msn_target2"}, "geometry": {"type": "Point", "coordinates": [-60.51179518963146, -31.74094995811533, 0.0]}}, {"type": "Feature", "properties": {"name": "CHACHO PEÑALOZA Y JUAN MANUEL DE ROSAS", "styleUrl": "#msn_target2"}, "geometry": {"type": "Point", "coordinates": [-60.49265226755849, -31.7451894614589, 0.0]}}, {"type": "Feature", "properties": {"name": "MIGUEL TORRE ALDAY Y JUAN MANUEL DE ROSA", "styleUrl": "#msn_target2"}, "geometry": {"type": "Point", "coordinates": [-60.49200165702979, -31.74434383489976, 0.0]}}, {"type": "Feature", "properties": {"name": "ALMTE GUILLERMO BROWN Y AVDA CIRCUNVALACION JOSE HERNANDEZ", "styleUrl": "#msn_target2"}, "geometry": {"type": "Point", "coordinates": [-60.48229366474228, -31.74332831680153, 0.0]}}, {"type": "Feature", "properties": {"name": "RUTA 12 Y LA FRATERNIDAD", "styleUrl": "#msn_target1"}, "geometry": {"type": "Point", "coordinates": [-60.38894343460519, -31.76102599736711, 0.0]}}, {"type": "Feature", "properties": {"name": "SALA GONZALEZ Y CARLOS MASTRONARDI", "styleUrl": "#msn_target2"}, "geometry": {"type": "Point", "coordinates": [-60.48319612800563, -31.75987886639786, 0.0]}}, {"type": "Feature", "properties": {"name": "GRAL URQUIZA Y AVDA SAN MARTIN", "styleUrl": "#msn_target2"}, "geometry": {"type": "Point", "coordinates": [-60.44220394436249, -31.7771115724641, 0.0]}}, {"type": "Feature", "properties": {"name": "BVARD CRESPO Y BERNANRDINO RIVADAVIA", "styleUrl": "#msn_target2"}, "geometry": {"type": "Point", "coordinates": [-60.43886736988502, -31.77515863913035, 0.0]}}, {"type": "Feature", "properties": {"name": "GRAL URQUIZA Y BERNARDINO RIVADAVIA", "styleUrl": "#msn_target2"}, "geometry": {"type": "Point", "coordinates": [-60.43944719681753, -31.77792000635758, 0.0]}}, {"type": "Feature", "properties": {"name": "AVDA FRIULI Y GUILLERMO MARIZZA", "styleUrl": "#msn_target1"}, "geometry": {"type": "Point", "coordinates": [-60.43657903660175, -31.78554806548396, 0.0]}}, {"type": "Feature", "properties": {"name": "FRENTE OPERACIONES ESPECIALES", "styleUrl": "#msn_target2"}, "geometry": {"type": "Point", "coordinates": [-60.41958182024185, -31.77604097609402, 0.0]}}, {"type": "Feature", "properties": {"name": "AVDA PARANA Y GUIDO MARIZZA", "styleUrl": "#msn_target2"}, "geometry": {"type": "Point", "coordinates": [-60.43349741962245, -31.77088526694722, 0.0]}}, {"type": "Feature", "properties": {"name": "RUTA 12 Y AVDA GUIDA MARIZZA", "styleUrl": "#msn_target2"}, "geometry": {"type": "Point", "coordinates": [-60.43251154991434, -31.76633440951963, 0.0]}}, {"type": "Feature", "properties": {"name": "MIGUEL DAVID Y GDRO FAUSTINO PARERA", "styleUrl": "#msn_target2"}, "geometry": {"type": "Point", "coordinates": [-60.49455302155969, -31.77152967746435, 0.0]}}, {"type": "Feature", "properties": {"name": "DR SOLARI T Y JOSE AREVALO", "styleUrl": "#msn_target2"}, "geometry": {"type": "Point", "coordinates": [-60.49877699475802, -31.77725848294856, 0.0]}}, {"type": "Feature", "properties": {"name": "AVDA JORGE NEWBERY Y GONZALO DE BERCEO", "styleUrl": "#msn_target2"}, "geometry": {"type": "Point", "coordinates": [-60.48661340846876, -31.77786116108199, 0.0]}}, {"type": "Feature", "properties": {"name": "AVDA JORGE NEWBERY Y JOSE POLITTI", "styleUrl": "#msn_target2"}, "geometry": {"type": "Point", "coordinates": [-60.51555201623831, -31.77262226702226, 0.0]}}, {"type": "Feature", "properties": {"name": "AVDA LOS CHANARES Y LAS CALANDRIAS", "styleUrl": "#msn_target2"}, "geometry": {"type": "Point", "coordinates": [-60.51880980216988, -31.82103349330972, 0.0]}}, {"type": "Feature", "properties": {"name": "VILLAGUAY 547", "styleUrl": "#msn_target2"}, "geometry": {"type": "Point", "coordinates": [-60.5302898774758, -31.73935370401615, 0.0]}}, {"type": "Feature", "properties": {"name": "MONTEVIDEO Y CARLOS PELLEGRINI", "styleUrl": "#msn_target2"}, "geometry": {"type": "Point", "coordinates": [-60.53407596771241, -31.73735857528951, 0.0]}}, {"type": "Feature", "properties": {"name": "SEBASTIAN VAZQUEZ E ITALIA", "styleUrl": "#msn_target2"}, "geometry": {"type": "Point", "coordinates": [-60.53538398041098, -31.73773221251702, 0.0]}}, {"type": "Feature", "properties": {"name": "ENRIQUE CARBO Y 9 DE JULIO", "styleUrl": "#msn_target2"}, "geometry": {"type": "Point", "coordinates": [-60.53024633898834, -31.73777829161343, 0.0]}}, {"type": "Feature", "properties": {"name": "GUALEGUAYCHU Y CNEL MANUEL BELGRANO", "styleUrl": "#msn_target2"}, "geometry": {"type": "Point", "coordinates": [-60.52798971743601, -31.73757498234345, 0.0]}}, {"type": "Feature", "properties": {"name": "NARCISO LAPRIDA 331", "styleUrl": "#msn_target2"}, "geometry": {"type": "Point", "coordinates": [-60.53306169799095, -31.72733938289918, 0.0]}}, {"type": "Feature", "properties": {"name": "CERVANTES 344", "styleUrl": "#msn_target2"}, "geometry": {"type": "Point", "coordinates": [-60.53388848557176, -31.72848490790276, 0.0]}}, {"type": "Feature", "properties": {"name": "LA PAZ Y LA RIOJA", "styleUrl": "#msn_target2"}, "geometry": {"type": "Point", "coordinates": [-60.52240989949092, -31.73027038706034, 0.0]}}, {"type": "Feature", "properties": {"name": "ALAMEDA DE LA FEDERACION Y BUENOS AIRES", "styleUrl": "#msn_target2"}, "geometry": {"type": "Point", "coordinates": [-60.5295400239905, -31.72704239066365, 0.0]}}, {"type": "Feature", "properties": {"name": "ALAMEDA DE LA FEDERACION 547", "styleUrl": "#msn_target2"}, "geometry": {"type": "Point", "coordinates": [-60.53453764581653, -31.72185845772449, 0.0]}}, {"type": "Feature", "properties": {"name": "ANGEL GOMEZ DEL RIO Y AYACUCHO", "styleUrl": "#msn_target2"}, "geometry": {"type": "Point", "coordinates": [-60.50321720492537, -31.7311355512479, 0.0]}}, {"type": "Feature", "properties": {"name": "ROBERTO ORTIZ Y AVDA DE LOS CONSTITUYENTES", "styleUrl": "#msn_target2"}, "geometry": {"type": "Point", "coordinates": [-60.50275758971964, -31.73419947147998, 0.0]}}, {"type": "Feature", "properties": {"name": "AVDA DON BOSCO Y AYACUCHO", "styleUrl": "#msn_target2"}, "geometry": {"type": "Point", "coordinates": [-60.50423406998033, -31.73487118524612, 0.0]}}, {"type": "Feature", "properties": {"name": "AVDA DON BOSCO Y AUSTRIA", "styleUrl": "#msn_target2"}, "geometry": {"type": "Point", "coordinates": [-60.49983244296532, -31.7354376507771, 0.0]}}, {"type": "Feature", "properties": {"name": "ANTONIO CRESPO Y BLAS PARERA", "styleUrl": "#msn_target2"}, "geometry": {"type": "Point", "coordinates": [-60.4909138628897, -31.72677305838822, 0.0]}}, {"type": "Feature", "properties": {"name": "MARTIN FIERRO Y BLAS  PARERA", "styleUrl": "#msn_target2"}, "geometry": {"type": "Point", "coordinates": [-60.49130510644879, -31.72859205943889, 0.0]}}, {"type": "Feature", "properties": {"name": "AVDA DON BOSCO Y BLAS PARERA", "styleUrl": "#msn_target2"}, "geometry": {"type": "Point", "coordinates": [-60.49290155821461, -31.73664468397241, 0.0]}}, {"type": "Feature", "properties": {"name": "ALMTE BROWN Y BLAS PARERA", "styleUrl": "#msn_target2"}, "geometry": {"type": "Point", "coordinates": [-60.49395448224043, -31.74141015552718, 0.0]}}, {"type": "Feature", "properties": {"name": "AVDA DON BOSCO Y GDOR MANUEL CRESPO", "styleUrl": "#msn_target2"}, "geometry": {"type": "Point", "coordinates": [-60.48708568499993, -31.73751597494664, 0.0]}}, {"type": "Feature", "properties": {"name": "AVDA CIRCUNVALACION JOSE HERNANDEZ Y GDOR LOPEZ JORDAN", "styleUrl": "#msn_target2"}, "geometry": {"type": "Point", "coordinates": [-60.47961350344584, -31.728363143357, 0.0]}}, {"type": "Feature", "properties": {"name": "LEANDRO ALEM Y GRAL SAN MARTIN", "styleUrl": "#msn_target2"}, "geometry": {"type": "Point", "coordinates": [-60.53125495978237, -31.73461244005401, 0.0]}}, {"type": "Feature", "properties": {"name": "PEATONAL Y GUALEGUAYCHU", "styleUrl": "#msn_target2"}, "geometry": {"type": "Point", "coordinates": [-60.53161651701455, -31.73524643502292, 0.0]}}, {"type": "Feature", "properties": {"name": "BRIG LOPEZ Y CORONEL CAMINOS", "styleUrl": "#msn_target2"}, "geometry": {"type": "Point", "coordinates": [-60.54363577413663, -31.74246912923349, 0.0]}}, {"type": "Feature", "properties": {"name": "GREGORIA MATORRAS DE SAN MARTIN PATITO SIRIRI", "styleUrl": "#msn_target2"}, "geometry": {"type": "Point", "coordinates": [-60.52311329490711, -31.72049567263837, 0.0]}}, {"type": "Feature", "properties": {"name": "ILLIA Y RAUL ALFONSIN", "styleUrl": "#msn_target2"}, "geometry": {"type": "Point", "coordinates": [-60.40648504250334, -31.75773750920073, 0.0]}}, {"type": "Feature", "properties": {"name": "GRAL ALVARADO Y JUAN PIRAN", "styleUrl": "#msn_target2"}, "geometry": {"type": "Point", "coordinates": [-60.53892711207186, -31.74596333549093, 0.0]}}, {"type": "Feature", "properties": {"name": "JUAN BAEZ Y JOSE MARIA PAZ", "styleUrl": "#msn_target2"}, "geometry": {"type": "Point", "coordinates": [-60.54690505802629, -31.76762881866363, 0.0]}}, {"type": "Feature", "properties": {"name": "VILLA HERNANDARIAS Y JUAN GARRIGO", "styleUrl": "#msn_target2"}, "geometry": {"type": "Point", "coordinates": [-60.50685451108795, -31.77297491509353, 0.0]}}, {"type": "Feature", "properties": {"name": "AVDA JORGE NEWBERY Y JUAN GARRIGO", "styleUrl": "#msn_target2"}, "geometry": {"type": "Point", "coordinates": [-60.5069501460306, -31.77396774236261, 0.0]}}, {"type": "Feature", "properties": {"name": "FRANCISCO SOLER 1236", "styleUrl": "#msn_target1"}, "geometry": {"type": "Point", "coordinates": [-60.51390222277449, -31.73762777753875, 0.0]}}, {"type": "Feature", "properties": {"name": "RUIZ MORENO Y ADOLFO ALSINA", "styleUrl": "#msn_target1"}, "geometry": {"type": "Point", "coordinates": [-60.51844921847347, -31.74014237986515, 0.0]}}, {"type": "Feature", "properties": {"name": "SAN NICOLAS Y AYACUCHO", "styleUrl": "#msn_target2"}, "geometry": {"type": "Point", "coordinates": [-60.50613751606263, -31.74296188598889, 0.0]}}, {"type": "Feature", "properties": {"name": "ALMIRANTE GUILLEMO BROWN Y AYACUCHO", "styleUrl": "#msn_target2"}, "geometry": {"type": "Point", "coordinates": [-60.50554444444445, -31.73933333333333, 0.0]}}, {"type": "Feature", "properties": {"name": "ALMTE BROWN Y DIAZ VELEZ", "styleUrl": "#msn_target2"}, "geometry": {"type": "Point", "coordinates": [-60.50248212546865, -31.73977696805503, 0.0]}}, {"type": "Feature", "properties": {"name": "TRATADO DEL CUADRILATERO Y RONDEAU", "styleUrl": "#msn_target2"}, "geometry": {"type": "Point", "coordinates": [-60.49941277046077, -31.73820711770539, 0.0]}}, {"type": "Feature", "properties": {"name": "CASIANO CALDERON Y LOS CEIBOS", "styleUrl": "#msn_target2"}, "geometry": {"type": "Point", "coordinates": [-60.54837116918094, -31.7360043257652, 0.0]}}, {"type": "Feature", "properties": {"name": "GRAL JUSTO JOSE DE URQUIZA Y BVARD SARMIENTO", "styleUrl": "#msn_target1"}, "geometry": {"type": "Point", "coordinates": [-60.54294848990438, -31.72737692782838, 0.0]}}, {"type": "Feature", "properties": {"name": "CERVANTES Y BVARD SARMIENTO", "styleUrl": "#msn_target1"}, "geometry": {"type": "Point", "coordinates": [-60.54203834255019, -31.72564156269233, 0.0]}}, {"type": "Feature", "properties": {"name": "NARCISO LAPRIDA Y RECONQUISTA", "styleUrl": "#msn_target1"}, "geometry": {"type": "Point", "coordinates": [-60.54441174772849, -31.72402014583507, 0.0]}}, {"type": "Feature", "properties": {"name": "CERVANTES Y JURAMENTO", "styleUrl": "#msn_target1"}, "geometry": {"type": "Point", "coordinates": [-60.54413990281874, -31.72455336452433, 0.0]}}, {"type": "Feature", "properties": {"name": "ESPAÑA Y DIAMANTE", "styleUrl": "#msn_target1"}, "geometry": {"type": "Point", "coordinates": [-60.53914376773571, -31.73011967967296, 0.0]}}, {"type": "Feature", "properties": {"name": "ESTADO DE PALESTUNA Y CALLE 1009", "styleUrl": "#msn_target1"}, "geometry": {"type": "Point", "coordinates": [-60.54789284802452, -31.72541429560015, 0.0]}}, {"type": "Feature", "properties": {"name": "GRAL PASCUAL ECHAGUE Y JUAN DOMINGO PERON", "styleUrl": "#msn_target1"}, "geometry": {"type": "Point", "coordinates": [-60.52145447777914, -31.73843504973297, 0.0]}}, {"type": "Feature", "properties": {"name": "GUALEGUAYCHU Y JUAN DOMINGO PERON", "styleUrl": "#msn_target1"}, "geometry": {"type": "Point", "coordinates": [-60.52274497688445, -31.74012402856297, 0.0]}}, {"type": "Feature", "properties": {"name": "MORENO Y GUEMES", "styleUrl": "#msn_target1"}, "geometry": {"type": "Point", "coordinates": [-60.41181128947319, -31.76337402406702, 0.0]}}, {"type": "Feature", "properties": {"name": "AVDA CHURRUARIN Y GDOR MAYA", "styleUrl": "#msn_target"}, "geometry": {"type": "Point", "coordinates": [-60.45508847653991, -31.75160423609008, 0.0]}}]}]